time,ankle_angle_l_moment,ankle_angle_r_moment,ground_force_right_vx,ground_force_right_vy,ground_force_right_vz,ground_force_right_px,ground_force_right_py,ground_force_right_pz,ground_torque_right_x,ground_torque_right_y,ground_torque_right_z,ground_force_left_vx,ground_force_left_vy,ground_force_left_vz,ground_force_left_px,ground_force_left_py,ground_force_left_pz,ground_torque_left_x,ground_torque_left_y,ground_torque_left_z,imu0_acc_x,imu0_acc_y,imu0_acc_z,imu0_gyro_x,imu0_gyro_y,imu0_gyro_z,imu0_roll,imu0_pitch,imu0_yaw,imu1_acc_x,imu1_acc_y,imu1_acc_z,imu1_gyro_x,imu1_gyro_y,imu1_gyro_z,imu1_roll,imu1_pitch,imu1_yaw
10.0,1.61368136,-27.62383831,8.54446849,616.67368288,-33.44546916,-1.41189767,0.0,0.65049094,0.0,-1.21099551,0.0,-0.06247478,0.02675234,0.01282347,-1.25653316,0.0,0.30418494,0.0,4.04e-06,0.0,1091.986463276663,-512.4051073445426,1323.122610169388,149.95968361578215,3.9,21.700960451970996,35.3124519773873,-10.69,-14.290395480219178,474.6883615820408,5791.033073444805,482.12368361566865,-46.390327683606145,104.64642937849743,-105.08978531070176,-82.52126553672994,-6.05063276836497,-11.78674576271517
10.01,1.58970192,-29.46609846,11.20312732,619.43729831,-34.93674053,-1.40988053,0.0,0.65198378,0.0,-1.65117002,0.0,-0.03357242,0.01447376,0.00619857,-1.35235731,0.0,0.30535514,0.0,1.131e-05,0.0,846.4497401128946,-385.5124519773492,1179.7327796609572,97.64329943500691,3.9,12.661412429374838,15.764429378523108,-10.69,-4.685875706210762,643.0499435028939,3642.1065197731346,269.8072994349415,-32.71801129942945,57.07580790958514,-58.875096045178886,-91.78680225989092,-10.683401129945462,-16.532508474578172
10.02,1.51535853,-28.52804164,17.23220372,608.91918196,-40.91397799,-1.41149466,0.0,0.65234063,0.0,-1.62024759,0.0,-0.21403657,0.09293531,0.03293489,-1.36886683,0.0,0.303821,0.0,-9e-08,0.0,600.9130169491262,-258.61979661015573,1036.3429491525264,45.32691525423165,3.9,3.621864406778685,-3.7835932203410856,-10.69,4.91864406779765,811.4115254237472,1493.1799661014632,57.49091525421433,-19.045694915252763,9.505186440672851,-12.660406779656036,-101.05233898305191,-15.316169491525955,-21.278271186441174
10.03,1.42416317,-27.52770114,22.29767989,603.62421856,-43.91933333,-1.41351937,0.0,0.65243369,0.0,-1.42157873,0.0,-0.9455942,0.41558579,0.11737854,-1.34459099,0.0,0.3003943,0.0,-5e-08,0.0,389.13289171165343,-150.00624198158002,911.0120107970796,0.1349152111780037,3.7345379485552783,-4.24563798031117,-20.853218164496518,-10.651816449666603,13.309578913940857,954.1311298825058,-363.03616957764984,-131.4111336932305,-6.702765322325093,-31.466473801207,27.343513496348088,-109.14873039060011,-19.354607176881522,-25.37048396316293
10.04,1.42139795,-26.80467536,27.35359341,604.79697116,-46.80509824,-1.41546119,0.0,0.65230886,0.0,-1.08211576,0.0,-2.44672809,1.09507439,0.23425207,-1.31988304,0.0,0.29741679,0.0,-7e-08,0.0,396.26531470307964,-159.93320292156136,902.7935287392831,1.1447596062240921,2.496049539536491,-4.512389329945987,-21.8503601143219,-10.366011432200729,13.830379167989785,930.5617427754867,-321.016480787556,-168.47051762463886,-2.9809488726583773,-29.643672912035758,27.07041092410292,-109.6631794220387,-19.538792632581753,-25.224405843124817
10.05,1.47227245,-26.34623586,32.03303733,612.23115261,-49.11968196,-1.41728369,0.0,0.65199598,0.0,-0.65362744,0.0,-4.22400658,1.93495212,0.30004331,-1.29510864,0.0,0.29491999,0.0,-5e-08,0.0,398.9302264440856,-163.82949841137554,899.5791543830408,1.709397364446082,2.0657572008958964,-4.696979009323412,-22.466183915828974,-10.175933121516737,14.094217537371744,920.4539327569145,-308.35575954476883,-186.3920150789106,-1.9486353455910033,-28.64925542997028,26.97256901401115,-109.98173212146467,-19.644753112141263,-25.14471131308922
10.06,1.53112871,-26.12027508,36.2981819,625.55134541,-49.46869764,-1.41901693,0.0,0.65154359,0.0,-0.12414806,0.0,-5.53685694,2.60732138,0.27277064,-1.27065242,0.0,0.29290668,0.0,-2e-08,0.0,398.0721088337934,-162.97007864992963,900.3109633314235,1.9229501536538491,2.272799234335134,-4.816776915464354,-22.7813044950258,-10.061343819990618,14.15541864159592,920.9617717068597,-318.8471913901772,-189.2215895359135,-3.037233710089133,-28.30809182769934,27.012935699776033,-110.14580316683161,-19.689026251367263,-25.117366138861396
10.07,1.55774859,-26.06230549,40.27771075,641.99523257,-49.34567951,-1.42057667,0.0,0.650992,0.0,0.43630864,0.0,-6.13866738,2.97782078,0.18804722,-1.24680562,0.0,0.29134304,0.0,1e-08,0.0,397.2139912235012,-162.11065888848375,901.0427722798063,2.136502942861616,2.4798412677743715,-4.936574821605297,-23.09642507422263,-9.946754518464498,14.216619745820097,921.469610656805,-329.3386232355856,-192.0511639929164,-4.1258320745872625,-27.966928225428394,27.053302385540917,-110.30987421219857,-19.733299390593263,-25.090020964633574
10.08,1.56093728,-26.1405116,43.99589976,660.04704797,-48.47619718,-1.42193899,0.0,0.65038452,0.0,1.02710383,0.0,-6.15959148,3.0819576,0.0872365,-1.22375849,0.0,0.29018661,0.0,3e-08,0.0,396.35587361320904,-161.25123912703785,901.7745812281889,2.350055732069383,2.686883301213609,-5.056372727746239,-23.411545653419456,-9.83216521693838,14.277820850044275,921.9774496067504,-339.83005508099404,-194.88073844991933,-5.214430439085392,-27.625764623157448,27.093669071305797,-110.4739452575655,-19.777572529819263,-25.06267579040575
10.09,1.53311646,-26.35163619,47.49894219,677.30141288,-47.61743456,-1.42298884,0.0,0.6497551,0.0,1.61516226,0.0,-5.81158318,3.00052063,0.00110987,-1.20162148,0.0,0.28938562,0.0,3e-08,0.0,395.49775600291684,-160.39181936559197,902.5063901765717,2.56360852127715,2.893925334652847,-5.176170633887182,-23.72666623261628,-9.71757591541226,14.339021954268452,922.4852885566957,-350.32148692640243,-197.71031290692224,-6.303028803583521,-27.2846010208865,27.13403575707068,-110.63801630293244,-19.821845669045263,-25.035330616177927
10.1,1.48067272,-26.73941242,50.4236684,692.16611859,-46.60423997,-1.4235609,0.0,0.64914263,0.0,2.17454361,0.0,-5.26953016,2.80782537,-0.06058238,-1.18045361,0.0,0.28888412,0.0,3e-08,0.0,394.63963839262465,-159.53239960414606,903.2381991249543,2.7771613104849173,3.1009673680920846,-5.295968540028124,-24.04178681181311,-9.602986613886141,14.400223058492628,922.993127506641,-360.81291877181087,-200.53988736392515,-7.3916271680816505,-26.94343741861556,27.174402442835564,-110.8020873482994,-19.866118808271263,-25.0079854419501
10.11,1.37364662,-27.30869774,52.18761722,703.09526419,-45.18282113,-1.42354998,0.0,0.64855915,0.0,2.71245055,0.0,-4.66221212,2.5648991,-0.09561013,-1.16029699,0.0,0.28862155,0.0,3e-08,0.0,393.78152078233245,-158.6729798427002,903.9700080733371,2.990714099692684,3.308009401531322,-5.415766446169067,-24.356907391009937,-9.488397312360023,14.461424162716805,923.5009664565863,-371.30435061721926,-203.36946182092805,-8.48022553257978,-26.602273816344614,27.214769128600448,-110.96615839366633,-19.910391947497263,-24.98064026772228
10.12,1.25201474,-28.22451162,52.96398846,710.03444172,-43.37368385,-1.42272837,0.0,0.64801799,0.0,3.2088764,0.0,-4.09715422,2.33058042,-0.12330439,-1.1412101,0.0,0.2885755,0.0,2e-08,0.0,392.92340317204025,-157.81356008125428,904.7018170217198,3.2042668889004515,3.5150514349705597,-5.5355643523100095,-24.672027970206763,-9.373808010833903,14.522625266940983,924.0088054065316,-381.7957824626277,-206.199036277931,-9.56882389707791,-26.261110214073668,27.25513581436533,-111.13022943903329,-19.954665086723264,-24.953295093494454
10.13,1.12715864,-29.5989613,52.91237832,713.0202969,-41.94444474,-1.42092323,0.0,0.64749377,0.0,3.68479671,0.0,-3.64817845,2.14964238,-0.15453725,-1.12326619,0.0,0.28876427,0.0,1e-08,0.0,397.32309328317723,-147.16334502839368,915.2343169240785,-0.6128234528158567,0.5723199623829012,-6.576890801895324,-27.322352877346546,-8.818689188700402,14.713025283032517,935.7553557347994,-350.93323434730706,-200.3121883025283,-14.244118349187978,-23.48863818859189,26.642638622635367,-112.3040503490433,-20.34075632075813,-25.333579773573984
10.14,1.00838866,-31.64500532,52.75703443,713.18077922,-42.3802296,-1.41789239,0.0,0.64694723,0.0,4.15323569,0.0,-3.36017688,2.05534394,-0.20162178,-1.10653484,0.0,0.28923639,0.0,1e-08,0.0,395.6447918399826,-146.19036423481748,920.0015611097047,-0.7647386696567503,-0.6864061200130738,-6.486465077585268,-27.448948891380624,-8.594433392411464,14.568344124136429,946.8813368539087,-369.4777418888133,-193.51217383441212,-12.851562194813122,-24.414597605526858,26.707745144138606,-112.44511447896699,-20.304586031034106,-25.449324700690855
10.15,0.90772704,-34.58802772,51.80458843,712.52584445,-43.53586059,-1.41333364,0.0,0.64635663,0.0,4.64575606,0.0,-3.26256186,2.07737897,-0.27926812,-1.09107822,0.0,0.29005717,0.0,1e-08,0.0,393.95258691402495,-145.36112384529898,924.5381187473647,-0.9213043811568307,-1.9152389896125277,-6.396586300739769,-27.565467055080678,-8.376306489324996,14.428321131511362,957.2522204760622,-387.2168273985204,-186.8610843650578,-11.55413699260231,-25.321545478937523,26.765578979646584,-112.57809728237955,-20.26647437617386,-25.561846755337502
10.16,0.81251347,-38.74828909,50.21209635,712.84005985,-44.04187438,-1.40694683,0.0,0.64567691,0.0,5.12649016,0.0,-3.39251896,2.25694668,-0.41532451,-1.07695092,0.0,0.29129897,0.0,1e-08,0.0,391.95685435751966,-147.66988743659536,924.0385467693919,-1.179395275147906,-2.4914716291668593,-6.318647961465237,-27.46197516194564,-8.291979761585338,14.389990800720607,951.138532714937,-387.3727040770695,-183.46118402391792,-12.333520385347637,-25.8134513907522,26.664642441897602,-112.53465624081669,-20.185980681513275,-25.60401011920733
10.17,0.75778372,-44.70885547,49.80798202,716.67607525,-45.08073384,-1.39823041,0.0,0.64483352,0.0,5.61770221,0.0,-3.81496073,2.6680588,-0.67543908,-1.0642105,0.0,0.293051,0.0,1e-08,0.0,389.96112180101443,-149.97865102789177,923.538974791419,-1.4374861691389813,-3.067704268721191,-6.240709622190704,-27.358483268810605,-8.20765303384568,14.351660469929854,945.0248449538117,-387.5285807556186,-180.06128368277808,-13.112903778092964,-26.305357302566872,26.563705904148616,-112.49121519925383,-20.105486986852693,-25.64617348307716
10.18,0.73170743,-52.61236934,47.10582196,726.45968114,-45.99851875,-1.38706266,0.0,0.6437289,0.0,5.97496433,0.0,-4.6197241,3.42597558,-1.18099403,-1.05289588,0.0,0.29538955,0.0,1e-08,0.0,387.9653892445092,-152.28741461918818,923.0394028134463,-1.6955770631300564,-3.6439369082755224,-6.162771282916172,-27.254991375675573,-8.123326306106021,14.3133301391391,938.9111571926865,-387.68445743416765,-176.6613833416382,-13.89228717083829,-26.797263214381545,26.46276936639963,-112.44777415769097,-20.02499329219211,-25.68833684694699
10.19,0.8160136,-63.06051416,49.38583716,741.96591565,-48.906359,-1.37342902,0.0,0.64219883,0.0,6.45865238,0.0,-5.89480764,4.71192175,-2.18154238,-1.04304306,0.0,0.29836593,0.0,0.0,0.0,385.96965668800397,-154.5961782104846,922.5398308354734,-1.953667957121132,-4.220169547829854,-6.084832943641638,-27.151499482540537,-8.038999578366363,14.274999808348348,932.7974694315612,-387.84033411271673,-173.26148300049834,-14.671670563583616,-27.289169126196217,26.36183282865065,-112.40433311612813,-19.94449959753153,-25.730500210816817
10.2,0.92778378,-75.4766695,51.36309438,763.09403308,-49.42157705,-1.35828733,0.0,0.64018387,0.0,6.42295219,0.0,-7.63574325,6.70717608,-3.99409685,-1.03460562,0.0,0.30194089,0.0,-1e-08,0.0,383.9739241314987,-156.90494180178098,922.0402588575006,-2.211758851112207,-4.796402187384185,-6.006894604367106,-27.0480075894055,-7.954672850626705,14.236669477557593,926.683781670436,-387.9962107912658,-169.8615826593585,-15.451053956328943,-27.78107503801089,26.260896290901663,-112.36089207456527,-19.864005902870947,-25.772663574686646
10.21,1.11272277,-88.71050646,46.58754547,788.6797442,-44.28148497,-1.34278247,0.0,0.63765208,0.0,6.08564138,0.0,-10.13773775,10.13559132,-7.52083381,-1.0274856,0.0,0.3060577,0.0,-1.1e-07,0.0,381.9781915749931,-159.2137053930778,921.5406868795277,-2.4698497451033283,-5.3726348269386195,-5.928956265092559,-26.94451569627045,-7.870346122887032,14.198339146766832,920.5700939093098,-388.1520874698149,-166.46168231821804,-16.230437349074407,-28.27298094982565,26.15995975315266,-112.3174510330024,-19.783512208210347,-25.814826938556486
10.22,1.47692142,-100.72319845,41.89337848,807.13627325,-38.24507295,-1.32840125,0.0,0.63455987,0.0,5.53556983,0.0,-14.9407149,18.06856032,-16.16586065,-1.02158049,0.0,0.31067276,0.0,-5.9e-07,0.0,379.9824590184879,-161.5224689843742,921.0411149015549,-2.7279406390944034,-5.948867466492951,-5.851017925818026,-26.841023803135414,-7.786019395147373,14.160008815976079,914.4564061481846,-388.30796414836396,-163.06178197707817,-17.009820741819734,-28.76488686164032,26.059023215403673,-112.27400999143956,-19.703018513549765,-25.856990302426315
10.23,1.93426381,-109.62726533,38.02704364,812.66712547,-32.59366921,-1.31613365,0.0,0.63102612,0.0,4.85508463,0.0,-21.5230811,34.67201471,-35.62953019,-1.01678844,0.0,0.31573899,0.0,-3.42e-06,0.0,388.5580468618684,-164.20302215349446,914.8360443069888,-3.5870575184051985,-7.78562611355762,-11.184136551584976,-25.589398594816295,-7.2233089050996755,14.13916361313746,934.2434269001914,-382.94286280969516,-151.16578478501987,-26.15892224425996,-32.804643157293135,29.03798231754462,-111.49901704373552,-18.606926076579157,-25.69041819343127
10.24,2.09501652,-113.72394339,38.03451622,804.69687789,-28.83441213,-1.30776222,0.0,0.62722181,0.0,4.02688482,0.0,-23.64886264,59.49752718,-66.02247386,-1.01305257,0.0,0.32112573,0.0,-2.427e-05,0.0,391.5970087739939,-165.35271792113483,917.1354358422697,-4.447648502369938,-10.081655965307295,-13.870121692943673,-25.18263488755171,-7.169521968601879,14.132440246075236,947.2934823679692,-380.0719850741253,-173.0772380408096,-24.703313275288348,-34.7712280229938,29.18253470938245,-111.16957205768651,-18.260672672874595,-25.693779876962385
10.25,1.7048274,-112.27127675,35.03509866,771.91420961,-24.47922159,-1.30147108,0.0,0.62349233,0.0,2.87832887,0.0,-17.85338457,87.01090038,-97.00782645,-1.01035434,0.0,0.32650287,0.0,-0.00020333,0.0,394.6359706861193,-166.50241368877522,919.4348273775504,-5.308239486334677,-12.377685817056971,-16.55610683430237,-24.775871180287126,-7.115735032104083,14.12571687901301,960.3435378357469,-377.2011073385554,-194.9886912965993,-23.247704306316738,-36.73781288869448,29.32708710122028,-110.84012707163751,-17.914419269170033,-25.697141560493495
10.26,1.01607164,-106.40145286,30.00950977,714.34642826,-21.78481495,-1.29554235,0.0,0.61999359,0.0,1.54087495,0.0,-3.92660124,112.06498596,-118.44638173,-1.0084293,0.0,0.33123357,0.0,-0.00172578,0.0,397.10404985505505,-166.43147617465962,921.4286500483149,-6.071643314409926,-14.616598019084194,-18.845650591858917,-24.398130661915715,-7.072486260417923,14.116383621210293,970.8937007790801,-373.8550012078761,-214.46442444739634,-22.07622493658649,-38.68846116680735,29.45406842613842,-110.53717160888998,-17.59265113540285,-25.70067807102307
10.27,0.23207972,-97.7356556,25.89191645,643.05000076,-20.49399401,-1.29015543,0.0,0.61697054,0.0,0.24331888,0.0,15.33015225,131.57597662,-124.04942073,-1.00682988,0.0,0.33455254,0.0,-0.01559391,0.0,396.32949978862194,-159.42730900471165,921.6868334037927,-6.283021500181152,-16.531080444497867,-18.88339669646092,-24.18524263196041,-7.089094546442805,14.09222611426501,967.2444073861583,-367.80958509481906,-220.1052023191199,-22.518609282521986,-40.54858920159414,29.481245621451862,-110.38467734629788,-17.40995998912915,-25.70520760357531
10.28,3.0352157,-87.59307079,16.14141702,570.8059492,-17.77770552,-1.28547736,0.0,0.61465677,0.0,-0.82617305,0.0,19.27580156,144.92209891,-26.50724044,-1.00567515,0.0,0.33907017,0.0,-0.0961559,0.0,395.5549497221888,-152.4231418347637,921.9450167592704,-6.494399685952379,-18.44556286991154,-18.921142801062924,-23.972354602005105,-7.105702832467687,14.068068607319727,963.5951139932365,-361.764168981762,-225.74598019084345,-22.96099362845748,-42.40871723638092,29.508422816765304,-110.23218308370579,-17.227268842855445,-25.70973713612755
10.29,4.33931681,-76.33956845,11.52572734,490.4923961,-17.09061074,-1.2805556,0.0,0.61272514,0.0,-1.46279371,0.0,17.94670429,162.88016122,-3.9339268,-1.0044897,0.0,0.33913892,0.0,-0.17540503,0.0,394.7803996557557,-145.41897466481572,922.2032001147481,-6.705777871723605,-20.360045295325214,-18.958888905664928,-23.7594665720498,-7.1223111184925685,14.043911100374444,959.9458206003146,-355.71875286870494,-231.38675806256703,-23.403377974392974,-44.26884527116771,29.53560001207875,-110.07968882111369,-17.044577696581744,-25.71426666867979
10.3,5.32567771,-65.30825856,4.83669735,415.42439889,-14.98892743,-1.27559478,0.0,0.61122282,0.0,-1.73898791,0.0,13.90048946,185.43752969,-2.25385025,-1.00321852,0.0,0.33811342,0.0,-0.2576741,0.0,394.0058495893224,-138.4148074948665,922.4613834702259,-6.917156057494868,-22.27452772073923,-18.99663501026694,-23.546578542094455,-7.138919404517454,14.019753593429158,956.2965272073922,-349.6733367556468,-237.0275359342916,-23.845762320328546,-46.12897330595483,29.562777207392195,-109.92719455852156,-16.861886550308007,-25.71879620123203
10.31,6.3226289,-54.84195162,-0.17274215,345.22169174,-12.39618372,-1.27048803,0.0,0.60999594,0.0,-1.69829892,0.0,11.85358973,218.32054431,7.78394918,-1.00060591,0.0,0.33610898,0.0,-0.40561796,0.0,393.23129952288923,-131.41064032491852,922.7195668257036,-7.128534243266094,-24.189010146152903,-19.034381114868946,-23.33369051213915,-7.1555276905423355,13.995596086483875,952.6472338144704,-343.62792064258974,-242.66831380601516,-24.28814666626404,-47.98910134074162,29.58995440270564,-109.77470029592946,-16.679195404034306,-25.723325733784275
10.32,7.28858219,-45.56268034,-5.1689474,284.85973511,-8.88771073,-1.26537022,0.0,0.60898893,0.0,-1.46282065,0.0,5.52804549,266.80113339,13.31770598,-0.99672533,0.0,0.33259991,0.0,-0.5715727,0.0,392.45674945645607,-124.40647315497054,922.9777501811814,-7.339912429037319,-26.103492571566576,-19.07212721947095,-23.12080248218384,-7.172135976567218,13.971438579538592,948.9979404215486,-337.5825045295327,-248.30909167773873,-24.730531012199535,-49.84922937552841,29.617131598019082,-109.62220603333736,-16.496504257760602,-25.727855266336515
10.33,7.99841865,-37.41687354,-9.78387314,233.34877045,-5.09674321,-1.2602159,0.0,0.60815168,0.0,-1.1194725,0.0,-0.60369682,328.96940285,18.79748383,-0.99259886,0.0,0.32894266,0.0,-0.59039354,0.0,420.74832361146355,-144.65075323357925,924.4791782906419,-5.87843773776306,-63.917291402485624,-6.526010651788025,-21.637314227745364,-7.108828303322343,13.711919857976158,988.8988181587641,-408.13072026375823,-249.08370022825258,-7.057217854425439,-65.72273903119456,29.74276692873447,-108.24676895764645,-15.33965762110068,-26.18979710880041
10.34,8.46782505,-30.52404415,-13.59384835,191.08503789,-1.77778439,-1.25535274,0.0,0.6077958,0.0,-0.78920121,0.0,-8.18547085,401.6386095,23.63003807,-0.98868679,0.0,0.3255381,0.0,-0.33154651,0.0,431.75517118944964,-187.511519147857,939.3381407275904,-2.1672195451855574,-75.44827457942347,-9.152324513202021,-21.33579536168174,-7.103192436666949,13.528754191675825,1091.6829362865276,-387.8359644376814,-248.1875974300448,0.07497139797673213,-68.04471609321723,29.948476061656383,-107.89452729168427,-15.049410488347846,-26.42932144165469
10.35,8.78291624,-24.85666887,-16.54508721,157.44990927,0.26775479,-1.25093605,0.0,0.60799448,0.0,-0.53428326,0.0,-16.68164831,479.81257829,33.17519571,-0.9851925,0.0,0.32265228,0.0,0.29853462,0.0,442.7620187674358,-230.37228506213478,954.1971031645389,1.5439986473919465,-86.9792577563613,-11.778638374616015,-21.034276495618116,-7.0975565700115535,13.345588525375492,1194.467054414291,-367.5412086116046,-247.29149463183703,7.2071606503789045,-70.36669315523991,30.154185194578293,-107.54228562572209,-14.75916335559501,-26.66884577450897
10.36,8.08350437,-20.27432841,-17.61772374,130.04242864,1.42269645,-1.24647431,0.0,0.60826382,0.0,-0.31768578,0.0,-25.97678408,561.92329805,41.07187454,-0.98118427,0.0,0.31935164,0.0,1.43814744,0.0,453.7688663454219,-273.2330509764125,969.0560656014874,5.255216839969449,-98.51024093329914,-14.404952236030013,-20.73275762955449,-7.091920703356159,13.16242285907516,1297.2511725420545,-347.2464527855277,-246.39539183362925,14.339349902781077,-72.68867021726258,30.359894327500204,-107.19004395975992,-14.468916222842177,-26.90837010736325
10.37,5.74693399,-16.57025126,-17.33936327,107.70675987,2.23156002,-1.24218159,0.0,0.6085619,0.0,-0.14941046,0.0,-37.25450743,645.43690447,50.62812882,-0.97601997,0.0,0.3151704,0.0,3.37335902,0.0,464.5970213509002,-270.69734677355495,973.0212461306454,5.996783871735899,-107.7422722438284,-17.042309707119454,-20.452106516390206,-7.1077893483609795,12.965010238907862,1312.0461858877707,-320.0961858877707,-240.7762170013498,15.736124930550137,-73.46639638066513,30.95949472180327,-106.90884943249465,-14.243381696960087,-27.074761012778783
10.38,2.44487466,-13.66305284,-15.00908128,89.57131395,2.37897316,-1.23884455,0.0,0.60880199,0.0,-0.05433447,0.0,-47.06530051,712.81876351,57.6511121,-0.97113618,0.0,0.31133068,0.0,5.82228543,0.0,475.3327940312732,-244.69210826255832,971.3544471783473,5.203070084927308,-115.78576775934665,-19.685376617192063,-20.182243828875283,-7.134775617112472,12.760232081911246,1281.351686324309,-289.40168632430886,-232.71525978252174,14.16774648781636,-73.44575982220812,31.762733074053564,-106.66438558615761,-14.051302960552409,-27.203342646241776
10.39,-1.10795889,-11.3393278,-11.72527237,74.9152599,2.02069424,-1.23684086,0.0,0.60892202,0.0,-0.02195135,0.0,-49.46315416,752.98482888,63.58091236,-0.96701523,0.0,0.308273,0.0,8.05840667,0.0,486.0685667116443,-218.68686975156626,969.6876482260496,4.409356298118858,-123.8292632748635,-22.3284435272642,-19.912381141360413,-7.1617618858639585,12.555453924914666,1250.6571867608525,-258.7071867608525,-224.65430256369513,12.599368045082866,-73.42512326375109,32.56597142630372,-106.41992173982061,-13.859224224144764,-27.331924279704744
10.4,-4.27381043,-9.3067618,-8.70379493,62.08076388,1.24207314,-1.23522953,0.0,0.60897675,0.0,-0.0079219,0.0,-46.58725137,764.8920695,64.46772186,-0.96375444,0.0,0.30593827,0.0,9.6835637,0.0,496.8043393920154,-192.68163124057423,968.0208492737519,3.6156425113104085,-131.87275879038032,-24.971510437336338,-19.64251845384554,-7.188748154615446,12.350675767918085,1219.9626871973962,-228.01268719739613,-216.5933453448685,11.030989602349369,-73.40448670529408,33.369209778553866,-106.17545789348361,-13.667145487737118,-27.460505913167715
10.41,-7.16721549,-7.52199046,-6.69857261,51.33707082,1.00097672,-1.23392173,0.0,0.60904934,0.0,-0.00301087,0.0,-36.76106123,756.45429207,58.81337968,-0.96111643,0.0,0.30409242,0.0,10.70364676,0.0,507.5401120723865,-166.67639272958218,966.3540503214541,2.8219287245019586,-139.91625430589716,-27.614577347408478,-19.372655766330666,-7.215734423366933,12.145897610921505,1189.2681876339398,-197.31818763393974,-208.5323881260419,9.462611159615872,-73.38385014683705,34.17244813080402,-105.9309940471466,-13.475066751329473,-27.589087546630683
10.42,-9.43131339,-5.80781854,-6.3060214,42.10090761,2.4018413,-1.23280879,0.0,0.60922285,0.0,-0.00154133,0.0,-25.59146686,736.08180015,53.36787813,-0.95893283,0.0,0.30259575,0.0,11.22874697,0.0,518.2758847527575,-140.67115421859012,964.6872513691563,2.028214937693509,-147.959749821414,-30.257644257480614,-19.102793078815793,-7.242720692118421,11.941119453924927,1158.5736880704835,-166.62368807048338,-200.47143090721528,7.8942327168823745,-73.36321358838002,34.97568648305417,-105.6865302008096,-13.282988014921829,-27.71766918009365
10.43,-10.96700185,-4.1153176,-6.96671555,33.88829692,3.80523437,-1.231683,0.0,0.6092929,0.0,-0.00090034,0.0,-16.84372335,712.38323488,49.21756614,-0.95720325,0.0,0.30137942,0.0,11.35352587,0.0,519.3554311103297,-164.7402173147933,922.7478770015889,-9.515314974483896,-172.2153044166789,-33.7253976772829,-18.59770631708609,-7.297976420904447,11.59163557979943,1133.5115247228584,-151.2961472813649,-190.4426887207467,8.415386239661956,-80.39462607777492,39.85095900052733,-104.95402428294922,-12.75808287876127,-28.024693823684647
10.44,-12.41599412,-2.37212532,-7.75916747,26.02769569,4.61995516,-1.23036915,0.0,0.60917318,0.0,-0.0005147,0.0,-4.43209982,691.51209659,44.5841247,-0.95578035,0.0,0.30034597,0.0,11.17280467,0.0,514.9750389052857,-256.5217356825567,836.0775863816593,-26.561156724204803,-213.58109769549532,-38.41600482962168,-17.79353486569478,-7.376674417911338,11.073441850758726,1110.901472140238,-181.19808335569252,-182.98288435739198,14.131023760546148,-96.49393971916643,49.72028381480488,-103.59227439406135,-11.80353486569478,-28.56054884774767
10.45,-13.76546754,-0.49499473,-10.07687785,18.92281637,4.39983014,-1.22883402,0.0,0.60879709,0.0,-0.00026974,0.0,10.14882554,674.66329389,41.75678916,-0.95459103,0.0,0.29945975,0.0,10.86270679,0.0,551.4386825865281,-273.696705124764,843.2832626777564,3.868441105444539,-214.0342473839549,-42.25287094177595,-17.405972632143843,-7.3617681781593785,10.864754494231299,1061.9165870673498,-273.3454762543534,-196.66681244969047,24.982766299972383,-100.45601824523717,51.73858867722014,-103.064593506842,-11.415972632143843,-28.787123691977445
10.46,-14.24195069,0.9903278,-11.17946798,12.72009738,2.97745274,-1.22640471,0.0,0.60815678,0.0,-1.771e-05,0.0,16.34777076,661.6565975,44.73323375,-0.95380327,0.0,0.29878803,0.0,10.41775027,0.0,587.902326267777,-290.8716745669743,850.4889389738547,34.29803893509928,-214.48739707241452,-46.08973705393091,-17.018410398592835,-7.346861938407417,10.656067137703836,1012.9317019944531,-365.49286915303065,-210.35074054199137,35.83450883940055,-104.41809677130861,53.75689353963576,-102.53691261962256,-11.028410398592838,-29.013698536207265
10.47,-14.51493303,1.44497402,-7.41402897,7.71927082,1.08350538,-1.22218546,0.0,0.60739647,0.0,-5.81e-06,0.0,19.47563261,654.15053502,46.28706676,-0.95327001,0.0,0.29818166,0.0,9.86646166,0.0,624.3659699490194,-308.04664400918165,857.6946152699518,64.72763676474861,-214.9405467608741,-49.92660316608519,-16.630848165041897,-7.331955698655458,10.447379781176409,963.9468169215651,-457.64026205169154,-224.03466863428983,46.68625137882679,-108.38017529737934,55.775198402051025,-102.0092317324032,-10.6408481650419,-29.240273380437042
10.48,-14.80594082,1.68798697,-4.91058344,4.69949489,0.43085184,-1.21647423,0.0,0.60677894,0.0,-2.04e-06,0.0,22.30672659,650.55014764,46.20181435,-0.95285392,0.0,0.29758868,0.0,9.198772,0.0,670.5347856058336,-317.33366991850016,936.6350451126465,52.58759044344864,-210.73795082110283,-46.31502259995485,-16.43444442505367,-7.360324078113819,10.27292822114798,935.7169878361645,-485.2392497513124,-249.92854487705145,48.11,-109.54741906773003,57.14834505506006,-101.67011570478701,-10.429282385996762,-29.473171323362582
10.49,-14.90672506,1.81964185,-3.71591621,3.25891163,0.23109732,-1.20900033,0.0,0.60619572,0.0,-7e-07,0.0,23.19392312,649.21165934,47.10013726,-0.95257074,0.0,0.2970581,0.0,8.4225758,0.0,718.169207343674,-325.4295146681555,1026.408347498294,34.01897907540974,-205.83227727264818,-41.57863056491185,-16.266908081883393,-7.395227482940959,10.103646707736347,910.6214397654504,-503.09059615015354,-277.6662806931802,48.11,-110.29260676078948,58.424064501492055,-101.35947540182546,-10.244294340412916,-29.707024135704426
10.5,-14.92266108,1.89821585,-3.09827124,2.48684633,0.15843583,-1.19954385,0.0,0.60557169,0.0,-2.4e-07,0.0,22.90603636,649.84861373,48.24232107,-0.95237618,0.0,0.29656934,0.0,7.63383713,0.0,765.8036290815144,-333.52535941781076,1116.1816498839414,15.45036770737083,-200.92660372419354,-36.84223852986884,-16.09937173871312,-7.4301308877681,9.934365194324714,885.5258916947362,-520.9419425489947,-305.40401650930903,48.11,-111.03779445384893,59.699783947924054,-101.0488350988639,-10.05930629482907,-29.94087694804627
10.51,-14.93947979,1.93020295,-2.64562904,1.94497589,0.12612346,-1.18795984,0.0,0.6048549,0.0,-8e-08,0.0,22.31460502,651.66590988,49.06906226,-0.95223309,0.0,0.29610594,0.0,6.85418202,0.0,813.4380508193548,-341.6212041674661,1205.9549522695888,-3.118243660668071,-196.0209301757389,-32.10584649482583,-15.931835395542844,-7.465034292595241,9.765083680913083,860.4303436240219,-538.7932889478359,-333.1417523254378,48.11,-111.7829821469084,60.975503394356046,-100.73819479590236,-9.874318249245224,-30.17472976038811
10.52,-15.15069453,1.92476684,-2.33119418,1.57448803,0.1142956,-1.17417653,0.0,0.60399546,0.0,-3e-08,0.0,23.12829992,654.12156907,48.80611043,-0.95202959,0.0,0.29560611,0.0,6.14074946,0.0,861.0724725571952,-349.71704891712136,1295.7282546552365,-21.686855028706972,-191.11525662728428,-27.369454459782826,-15.764299052372568,-7.499937697422382,9.59580216750145,835.3347955533077,-556.644635346677,-360.8794881415666,48.11,-112.52816983996784,62.251222840788046,-100.4275544929408,-9.689330203661378,-30.408582572729955
10.53,-15.31502792,1.87655458,-2.19873767,1.37065802,0.11838548,-1.15819525,0.0,0.60294035,0.0,-1e-08,0.0,21.43227322,656.20497404,48.03295537,-0.95174143,0.0,0.29503287,0.0,5.48966955,0.0,814.0261222920614,-419.0881092167334,1359.8974137931104,-32.29717408024902,-174.15701640815965,-20.054081528010975,-15.553325855659565,-7.544223817459293,9.343321369055307,823.704230867832,-539.6377015767384,-369.8376586335166,41.11188181002813,-107.77117228560732,61.26887770798728,-100.0230957569543,-9.441101140879422,-30.746015254454484
10.54,-15.55738177,1.83074066,-2.2727639,1.31717461,0.13906982,-1.14010827,0.0,0.60163674,0.0,-1e-08,0.0,19.27415796,658.09828806,48.96234208,-0.95123504,0.0,0.29435528,0.0,4.91735086,0.0,179.0306088964063,-868.9663299576191,1265.0698275862235,6.511952954742611,-82.35468337394246,3.2762607357990277,-15.072618254070074,-7.646774772465051,8.57418920651212,895.6885918471864,-306.16763363675403,-262.178384181534,-9.343188052804926,-68.84667542623421,46.26439110370727,-99.03604281502389,-8.800157672093432,-31.726658761697045
10.55,-15.90555381,1.79709045,-2.61278834,1.41737448,0.17667718,-1.12005304,0.0,0.60007699,0.0,-0.0,0.0,16.74235677,658.71793737,51.34454759,-0.95044309,0.0,0.2935268,0.0,4.40083069,0.0,-83.73668270532002,-911.7199266231678,1254.321617598411,27.006989143836474,-28.76649114365683,8.346721498812336,-14.694291041409803,-7.716095389889634,8.133440591826306,902.0326794574935,-236.2596451447978,-215.2273178359848,-40.253116410549026,-43.33792800649603,34.9540408384208,-98.36774456440021,-8.342113192794642,-32.34354404113914
10.56,-16.35681297,1.75860302,-3.326984,1.701221,0.23927359,-1.09818385,0.0,0.59829299,0.0,0.0,0.0,12.10103878,658.21986917,52.67740918,-0.94933346,0.0,0.29247959,0.0,3.92875834,0.0,-75.29533906715182,-657.8390737677798,1304.8343532914323,34.15822361892162,-3.0214455838570373,0.11287793582532046,-14.390559047304002,-7.761204101885545,7.9319550115779025,860.5507079060535,-285.5243731392657,-212.50876612636455,-56.92228911677145,-27.604009262322162,26.335269599735344,-97.93169368177307,-8.017330466424081,-32.695391994707244
10.57,-17.08670541,1.77104679,-4.56703305,2.22173468,0.34858363,-1.07470814,0.0,0.59629951,0.0,0.0,0.0,8.10171729,656.25637186,53.15698145,-0.94782605,0.0,0.2911991,0.0,3.48125279,0.0,-66.85399542898361,-403.95822091239165,1355.3470889844539,41.30945809400676,22.723599975942747,-8.120965627161691,-14.0868270531982,-7.806312813881456,7.730469431329499,819.0687363546135,-334.78910113373365,-209.79021441674428,-73.59146182299389,-11.870090518148295,17.71649836104989,-97.49564279914593,-7.69254774005352,-33.047239948275354
10.58,-18.07754983,1.85085859,-6.49923428,3.03527097,0.53258124,-1.04984674,0.0,0.59408603,0.0,1e-08,0.0,5.0830953,652.53520005,52.68141537,-0.94595167,0.0,0.28971336,0.0,3.06217817,0.0,-61.21372575446832,-213.26104424260166,1379.1233513038358,46.63763551128039,45.14696220334071,-15.04797363023746,-13.838238499853498,-7.848407852329331,7.590386170524467,788.5727096396133,-375.2992382068567,-212.13109405215425,-83.67838265455572,1.4814485789630605,9.376857896278612,-97.08493231760913,-7.390155874597118,-33.304559624963375
10.59,-19.28518402,2.02024458,-9.17149192,4.14614364,0.81783823,-1.02379473,0.0,0.5916262,0.0,2e-08,0.0,3.67391296,646.70402057,52.20168848,-0.94373728,0.0,0.28806166,0.0,2.68529494,0.0,-63.83507549565393,-208.92077663834348,1324.0418003711286,46.58880261744311,57.77319523390987,-18.12053931047961,-13.752292606699871,-7.881614220138686,7.631405801347789,790.4791458150211,-389.98817267311296,-229.39449868151226,-74.35129993163373,7.806284988768585,1.8604988768432627,-96.74896200800859,-7.1538046684246455,-33.28307315167497
10.6,-20.53454743,2.20952445,-12.24302601,5.39816722,1.19668262,-0.99670542,0.0,0.58888881,0.0,3e-08,0.0,3.27017856,639.12763279,51.78773057,-0.9413903,0.0,0.28637096,0.0,2.37424608,0.0,-66.45642523683955,-204.58050903408534,1268.9602494384214,46.53996972360582,70.39942826447901,-21.193104990721764,-13.666346713546243,-7.914820587948042,7.672425432171111,792.3855819904288,-404.6771071393691,-246.65790331087027,-65.02421720871175,14.13112139857411,-5.6558601425920845,-96.41299169840805,-6.917453462252172,-33.261586678386564
10.61,-21.75057451,2.3696668,-15.17449195,6.57137,1.61863236,-0.96869696,0.0,0.58585376,0.0,6e-08,0.0,4.0863555,630.22589478,52.11693913,-0.93901176,0.0,0.28471163,0.0,2.14349065,0.0,-69.07777497802516,-200.2402414298272,1213.878698505714,46.49113682976853,83.02566129504817,-24.265670670963917,-13.580400820392617,-7.948026955757397,7.713445062994433,794.2920181658365,-419.3660416056253,-263.9213079402283,-55.69713448578976,20.455957808379633,-13.172219162027433,-96.07702138880751,-6.681102256079699,-33.24010020509816
10.62,-22.91932807,2.4444279,-17.41852213,7.4559134,2.00988368,-0.93987466,0.0,0.58251502,0.0,1e-07,0.0,6.56200271,620.81994325,52.39314798,-0.93674302,0.0,0.28315863,0.0,1.99234232,0.0,-71.69912471921077,-195.89997382556905,1158.797147573007,46.44230393593124,95.65189432561732,-27.33823635120607,-13.49445492723899,-7.981233323566753,7.754464693817754,796.1984543412442,-434.0549760718815,-281.1847125695863,-46.370051762867774,26.780794218185157,-20.68857818146278,-95.74105107920697,-6.444751049907225,-33.218613731809754
10.63,-23.93981306,2.3877522,-18.14376692,7.71647097,2.24405806,-0.91033918,0.0,0.57887337,0.0,2.7e-07,0.0,9.79100922,611.77077548,53.32129199,-0.93468501,0.0,0.28177038,0.0,1.91597251,0.0,-66.58241415191841,-200.97101716962294,1102.7922695109187,44.76735744016502,108.95235796045999,-28.473093132152627,-13.387305411030148,-8.040607700312203,7.832433402705553,794.8782705515061,-443.12864047866475,-300.65741831426004,-35.57565348594969,34.68566024974204,-29.34184339230162,-95.33035171696139,-6.166958896982244,-33.151305931321495
10.64,-24.81270879,2.17100957,-16.48936865,6.99713353,2.16503137,-0.88020499,0.0,0.5749345,0.0,1.69e-06,0.0,13.62047986,603.60388193,54.58336898,-0.93289924,0.0,0.28057381,0.0,1.89251595,0.0,-11.327471383971499,-267.0220057232092,1040.8047565036381,32.556119146721386,126.6214526534871,-17.052697710717275,-13.142768470343377,-8.269535900104072,8.149811134235192,772.6514235171682,-415.81854682622094,-334.4451394380875,-15.273884495316082,52.82822008324777,-45.361614464100924,-94.43545057232045,-5.620652965660735,-32.787101977107156
10.65,-25.53887168,1.87911588,-12.96552641,5.50474855,1.79178512,-0.84964261,0.0,0.57070614,0.0,8.81e-06,0.0,16.9907771,597.90456553,56.60578505,-0.93139468,0.0,0.27956552,0.0,1.90334254,0.0,42.94965988749521,-319.5523017452762,994.1617354680516,21.29514957449868,142.5274544930046,-5.57360161546214,-12.923739795182458,-8.473206692629454,8.432977931631331,756.5608758113372,-399.67212058272065,-367.4019916342135,2.6628732150585286,68.95477888360027,-60.11585518534557,-93.64572306360883,-5.142365209865857,-32.47251839030722
10.66,-26.23212208,1.60363079,-9.05968585,3.85646311,1.30540513,-0.81899077,0.0,0.56619433,0.0,3.184e-05,0.0,20.12749762,595.03912356,58.16437749,-0.93013935,0.0,0.27871148,0.0,1.93329631,0.0,93.58574816096825,-321.7360605798355,1004.6564707918648,13.572662916486527,151.8682881869319,6.124076157507332,-12.799695369969712,-8.582827347468626,8.588754651665942,763.3198546083945,-425.0954582431843,-397.26496581566363,11.79311986153162,77.5744240588488,-70.15768411942861,-93.24762700129814,-4.917354392038083,-32.34270445694505
10.67,-26.96436085,1.39481933,-5.7957238,2.47788039,0.86537541,-0.78900422,0.0,0.56138656,0.0,8.103e-05,0.0,22.87063983,595.41733388,58.78242856,-0.92908425,0.0,0.27797887,0.0,1.97089052,0.0,144.2218364344413,-323.9198194143948,1015.1512061156781,5.850176258474374,161.2091218808592,17.821753930476802,-12.675650944756965,-8.692448002307797,8.744531371700553,770.0788334054517,-450.51879590364786,-427.1279399971137,20.92336650800471,86.19406923409734,-80.19951305351165,-92.84953093898747,-4.692343574210311,-32.21289052358287
10.68,-27.81742358,1.24860108,-3.32868259,1.43152421,0.51265287,-0.76146229,0.0,0.55620909,0.0,0.00015065,0.0,25.83446817,598.73173555,58.59489731,-0.92812891,0.0,0.27732205,0.0,1.9885924,0.0,194.85792470791432,-326.10357824895414,1025.6459414394913,-1.8723103995377777,170.54995557478645,29.519431703446276,-12.551606519544219,-8.802068657146968,8.900308091735166,776.8378122025091,-475.9421335641115,-456.99091417856374,30.0536131544778,94.81371440934586,-90.2413419875947,-92.45143487667679,-4.467332756382538,-32.08307659022069
10.69,-28.77678146,1.15548217,-1.74836442,0.75739184,0.27779069,-0.74020998,0.0,0.55046589,0.0,0.00020293,0.0,28.4650871,604.29402686,57.29421269,-0.92723183,0.0,0.27671955,0.0,1.98451842,0.0,237.11439759928447,-287.8359965915883,1037.5535558684041,-5.624868850029382,175.34571576763452,33.543589211618105,-12.489631001778308,-8.853466953171306,8.999357587433305,786.1770969176041,-466.1767271784256,-464.0947703023119,32.72510225251922,100.36853512151701,-96.65548236514468,-92.224382780083,-4.347881594546541,-32.014109365738
10.7,-29.90146047,1.09619613,-0.95619638,0.41752241,0.15691356,-0.72890569,0.0,0.54405006,0.0,0.0001906,0.0,31.24914124,611.21763409,55.52486112,-0.92621786,0.0,0.27609669,0.0,1.89821976,0.0,276.5056987255434,-235.73722658566155,1049.944264226436,-8.020022969768522,178.58741701244773,34.94400414937742,-12.448878186129228,-8.884957765263778,9.079010818020144,796.398644042678,-444.37952800830146,-463.4167916419681,33.188202430349676,104.87542605216305,-101.82923755186657,-92.05581431535272,-4.264523562537058,-31.96594694724363
10.71,-31.17372676,1.05552936,-0.62140414,0.27363098,0.10541403,-0.72307853,0.0,0.53772374,0.0,0.00013817,0.0,33.85731068,618.54877247,53.37335793,-0.9250106,0.0,0.27543672,0.0,1.73620724,0.0,315.8969998518093,-183.63845657972553,1062.3349725844698,-10.415177089508086,181.82911825726154,36.34441908713698,-12.40812537048014,-8.916448577356254,9.158664048606997,806.6201911677538,-422.5823288381735,-462.73881298162416,33.651302608180224,109.38231698280988,-107.0029927385894,-91.88724585062239,-4.181165530527561,-31.917784528749255
10.72,-32.61669617,1.03278597,-0.50189487,0.22303436,0.08845911,-0.72282972,0.0,0.5346045,0.0,0.00020663,0.0,36.23718139,625.5694111,51.28500158,-0.92347723,0.0,0.27471502,0.0,1.51768835,0.0,355.28830097806826,-131.53968657379878,1074.7256809425016,-12.810331209247225,185.07081950207476,37.74483402489629,-12.36737255483106,-8.947939389448726,9.238317279193836,816.8417382928277,-400.7851296680494,-462.06083432128037,34.11440278601068,113.88920791345592,-112.17674792531129,-91.71867738589211,-4.097807498518078,-31.869622110254888
10.73,-34.26195012,1.0336326,-0.61046468,0.27434647,0.11553597,-0.75892046,0.0,0.54235401,0.0,0.00060233,0.0,38.35309465,631.83451398,49.26090359,-0.92153024,0.0,0.27394834,0.0,1.31911309,0.0,394.6796021043272,-79.44091656787202,1087.1163893005335,-15.205485328986365,188.31252074688797,39.1452489626556,-12.32661973918198,-8.979430201541197,9.317970509780675,827.0632854179016,-378.98793049792533,-461.38285566093657,34.57750296384114,118.39609884410196,-117.3505031120332,-91.55010892116182,-4.014449466508595,-31.82145969176052
10.74,-36.14201775,1.12139184,-1.34994807,0.61422006,0.27734312,-0.80157607,0.0,0.5527136,0.0,0.00087721,0.0,40.29232265,637.17976098,47.66676586,-0.91907199,0.0,0.27316084,0.0,1.18309625,0.0,461.1573656927412,-52.44160697455205,1109.6245900094245,-13.405369934024627,191.52498586239392,39.138659283694665,-12.21011310084826,-9.061286522148913,9.455801131008478,860.822514137605,-376.8193590951928,-464.2801154571158,27.231442035815547,124.93956173421289,-122.94857210179069,-91.2990409990575,-3.945699811498587,-31.802257304429784
10.75,-38.28250776,1.36339141,-3.46102819,1.59555353,0.75713948,-0.80259969,0.0,0.55323746,0.0,0.00074615,0.0,42.53217641,641.24327266,46.29960273,-0.91608333,0.0,0.27240115,0.0,1.18020171,0.0,578.652653157397,-72.71729029217691,1151.1891517436375,-3.703437794533592,194.68238454288402,36.48196748350616,-11.95092365692743,-9.23800659754948,9.70320923656927,938.9151154571148,-411.6214326107441,-473.9113595664466,5.176776625824996,135.3189208294061,-129.34583883129116,-90.89258482563619,-3.904465127238455,-31.837601319509897
10.76,-40.63686662,1.7793669,-7.18347744,3.36202852,1.66115949,-0.78499067,0.0,0.5491696,0.0,0.00051027,0.0,44.74945275,643.77583518,45.17028438,-0.91256424,0.0,0.27169152,0.0,1.31442861,0.0,630.6126909815534,-101.95967106729294,1149.728307746766,0.37918455104418186,193.62052453557442,35.840227984844695,-11.85489334924027,-9.345108748377621,9.86319532755614,967.0998286508383,-429.66860403529205,-471.2437255004789,-2.980447579217827,139.43747184603484,-131.76617945121072,-90.73382893926085,-3.9146821453386984,-31.87127771149888
10.77,-43.17169218,2.23869356,-11.26616361,5.36910219,2.74502645,-0.76265229,0.0,0.54377235,0.0,0.00030558,0.0,46.89007823,644.57988951,43.98029674,-0.90853982,0.0,0.27104733,0.0,1.57905553,0.0,647.1602741324372,-136.04727283453482,1125.018368970989,1.4253714750186066,190.2787570302977,36.287282798222236,-11.847027282142717,-9.414592341072664,9.975942289287719,968.3164470285931,-438.66214075015995,-461.9303020569772,-3.628087103582947,140.17294911965595,-132.03755876607624,-90.70891972678527,-3.952701469643533,-31.904052991072014
10.78,-45.89681157,2.58216754,-14.39689729,7.00526025,3.67239998,-0.73927312,0.0,0.53791908,0.0,0.00016581,0.0,48.22269976,644.78518166,43.00853812,-0.90397044,0.0,0.27049962,0.0,1.88254532,0.0,663.7078572833209,-170.13487460177672,1100.3084301952122,2.471558398993032,186.936989525021,36.73433761159978,-11.839161215045165,-9.484075933767707,10.088689251019298,969.5330654063478,-447.6556774650278,-452.6168786134756,-4.2757266279480675,140.90842639327707,-132.3089380809418,-90.68401051430969,-3.9907207939483684,-31.936828270645147
10.79,-49.12251769,2.86232058,-16.82633269,8.38001475,4.45674474,-0.71586618,0.0,0.53187501,0.0,8.286e-05,0.0,49.5198244,646.37443979,42.26832887,-0.89861083,0.0,0.27011369,0.0,2.22312329,0.0,680.2554404342046,-204.22247636901858,1075.5984914194353,3.5177453229674565,183.5952220197443,37.18139242497732,-11.831295147947612,-9.55355952646275,10.20143621275088,970.7496837841024,-456.6492141798957,-443.3034551699739,-4.9233661523131875,141.64390366689818,-132.58031739580736,-90.65910130183411,-4.028740118253204,-31.96960355021828
10.8,-53.0886343,3.07975844,-18.71508585,9.55452613,5.08681378,-0.69280368,0.0,0.52578163,0.0,3.883e-05,0.0,49.9340346,652.00461178,41.80072774,-0.89228283,0.0,0.26999765,0.0,2.46225152,0.0,696.8030235850912,-238.31007813626655,1050.888552643654,4.563932246942067,180.25345451446702,37.628447238354944,-11.82342908085006,-9.623043119157806,10.314183174482478,971.9663021618575,-465.64275089476513,-433.99003172647065,-5.571005676678422,142.3793809405194,-132.85169671067294,-90.63419208935852,-4.066759442558045,-32.00237882979142
10.81,-57.94554965,3.19787034,-19.6461445,10.29847377,5.41830159,-0.67030431,0.0,0.51975975,0.0,1.678e-05,0.0,50.2987706,661.94126978,40.44501924,-0.88505133,0.0,0.27017878,0.0,2.59422782,0.0,713.3506067359749,-272.3976799035084,1026.1786138678772,5.610119170916493,176.9116870091903,38.075502051732485,-11.815563013752508,-9.69252671185285,10.426930136214057,973.1829205396122,-474.63628760963303,-424.67660828296897,-6.218645201043543,143.11485821414053,-133.1230760255385,-90.60928287688294,-4.1047787668628795,-32.035154109364555
10.82,-63.42057551,3.21775874,-19.55428297,10.53455214,5.41483778,-0.64852944,0.0,0.51391455,0.0,6.02e-06,0.0,50.69966407,675.45985854,41.21025196,-0.87721194,0.0,0.2706666,0.0,2.54871675,0.0,729.8981898868586,-306.4852816707503,1001.4686750921002,6.656306094890917,173.5699195039136,38.522556865110026,-11.807696946654955,-9.762010304547893,10.539677097945638,974.399538917367,-483.6298243245009,-415.3631848394673,-6.866284725408663,143.85033548776167,-133.39445534040402,-90.58437366440737,-4.142798091167715,-32.067929388937685
10.83,-69.29236403,3.15777675,-18.80083263,10.41270208,5.15624907,-0.62758996,0.0,0.50834029,0.0,5.6e-07,0.0,50.74439751,691.00970444,41.87144437,-0.86911107,0.0,0.27141397,0.0,2.24681313,0.0,748.0029882701198,-339.535165698669,981.0799840564678,7.168025281860964,169.48490490832864,39.427412595374186,-11.866843184147278,-9.89194624757971,10.690889420339177,974.8784751167327,-492.0774205671352,-407.02102266256327,-6.057852180851784,144.47891697984326,-133.44943172759466,-90.5859537638081,-4.21893064571215,-32.132809475002695
10.84,-75.3071314,3.07866334,-17.81749267,10.14602339,4.7742387,-0.60756368,0.0,0.50312242,0.0,-2.48e-06,0.0,51.36803307,707.46322749,44.32254739,-0.86098521,0.0,0.27241278,0.0,1.64321477,0.0,823.3325708320908,-303.2184252907893,1122.5613420817197,-14.081789442290313,136.67569937369527,58.35436325678491,-14.800861914703194,-12.12121383835376,12.337819862809422,944.7729615269911,-473.50518043543184,-441.04665374291613,51.90893528183705,141.2063972561884,-124.68221890844028,-91.71337608112137,-5.912558902475365,-33.27605726215333
10.85,-81.10701399,2.9974821,-16.93891359,9.91674567,4.36169704,-0.58850559,0.0,0.49833202,0.0,-4.38e-06,0.0,52.9371827,722.80491089,49.23671418,-0.85306809,0.0,0.27364991,0.0,0.73714016,0.0,817.1440829108265,-134.65793220002908,1056.1829744507443,-20.021743712098292,134.3444537230342,60.47684064022257,-16.68971766577184,-10.456038373595876,12.462086688537621,932.5202525101905,-441.9513480465272,-464.105605925041,55.45799582463446,143.69173377075242,-122.04776220300243,-92.36453424793714,-6.906693508300969,-32.132802465453885
10.86,-86.53465726,2.90798717,-16.33189273,9.83225276,3.94632447,-0.57045652,0.0,0.49403845,0.0,-5.74e-06,0.0,53.1689171,736.20177052,50.91617475,-0.84557309,0.0,0.27502704,0.0,-0.39643726,0.0,814.017622523857,11.740348022255162,993.7635519562023,-25.400659290521137,132.13486635489156,61.77994347489989,-18.355851995488113,-9.005163175037707,12.567664981052687,920.9718444165627,-412.5140302650102,-483.15279457054925,57.996941307681915,145.847998555188,-119.57386563248558,-92.95168231879649,-7.796685930826441,-31.169688098044418
10.87,-91.30297484,2.82056897,-16.12576469,10.00687622,3.62240293,-0.55347332,0.0,0.49027898,0.0,-6.81e-06,0.0,52.85189491,745.66602053,49.52678153,-0.83862383,0.0,0.27650203,0.0,-1.58116354,0.0,831.0968210334189,11.894968252157696,957.4683540549827,-27.0774016197101,130.72807573856522,57.67617048781459,-18.55229573020035,-8.968409185962514,12.549921675981905,914.0709661229619,-397.04313562222137,-475.7272213984267,53.870355499791316,145.83279000798447,-118.15947074255747,-93.11644158016804,-7.999466560206814,-31.39528154823008
10.88,-95.17830571,2.78176428,-16.40810723,10.53709901,3.45162683,-0.53764046,0.0,0.48702024,0.0,-7.59e-06,0.0,53.56682296,751.29939196,50.51612892,-0.8322837,0.0,0.27809746,0.0,-2.71755311,0.0,848.1760195429839,12.049588482060258,921.1731561537567,-28.754143948899355,129.32128512223863,53.572397500728556,-18.74873946491262,-8.931655196887316,12.532178370911119,907.1700878293598,-381.57224097942975,-468.30164822630286,49.74376969189999,145.81758146078096,-116.74507585262911,-93.28120084153963,-8.202247189587224,-31.620874998415786
10.89,-98.03679588,2.78252998,-17.29492352,11.54497679,3.41538457,-0.52304608,0.0,0.48420635,0.0,-8.29e-06,0.0,55.14010454,752.73084225,51.40902743,-0.82671215,0.0,0.27981076,0.0,-3.90196255,0.0,865.2552180525458,12.204208711962792,884.8779582525372,-30.430886278088316,127.91449450591229,49.46862451364326,-18.945183199624857,-8.894901207812124,12.514435065840335,900.2692095357589,-366.1013463366409,-460.8760750541803,45.6171838840094,145.80237291357741,-115.33068096270101,-93.44596010291117,-8.405027818967596,-31.846468448601453
10.9,-100.30347046,2.86106205,-18.94559134,13.22126491,3.55278719,-0.50977645,0.0,0.48178843,0.0,-8.79e-06,0.0,56.82684195,752.52914285,51.22775835,-0.82171045,0.0,0.2815604,0.0,-5.08406258,0.0,882.3344165621078,12.358828941865328,848.5827603513177,-32.10762860727728,126.50770388958595,45.364851526557956,-19.141626934337094,-8.858147218736931,12.496691760769552,893.3683312421581,-350.6304516938521,-453.4505018820578,41.49059807611881,145.7871643663739,-113.9162860727729,-93.61071936428273,-8.607808448347969,-32.07206189878712
10.91,-102.206344,3.04447814,-21.57506428,15.85038189,3.92687865,-0.49791964,0.0,0.47970929,0.0,-8.97e-06,0.0,58.28386635,750.35004618,49.55339907,-0.81688995,0.0,0.28324114,0.0,-6.19458515,0.0,899.4136150716697,12.513449171767862,812.2875624500981,-33.78437093646623,125.10091327325962,41.26107853947266,-19.33807066904933,-8.821393229661739,12.47894845569877,886.4674529485573,-335.15955705106325,-446.02492870993524,37.36401226822821,145.77195581917036,-112.5018911828448,-93.77547862565429,-8.810589077728343,-32.29765534897278
10.92,-104.11571185,3.4188768,-25.45238861,19.8754251,4.68121512,-0.4875765,0.0,0.47791144,0.0,-7.7e-06,0.0,61.28619055,748.29367686,47.92268626,-0.81219153,0.0,0.28485188,0.0,-7.18346848,0.0,916.4928135812316,12.668069401670396,775.9923645488786,-35.46111326565519,123.69412265693327,37.157305552387356,-19.53451440376157,-8.784639240586545,12.461205150627988,879.5665746549564,-319.6886624082744,-438.5993555378127,33.237426460337616,145.75674727196684,-111.0874962929167,-93.94023788702583,-9.013369707108716,-32.523248799158445
10.93,-106.4714119,4.03249884,-30.67809553,25.71248768,5.90312008,-0.47884131,0.0,0.47635248,0.0,-6.1e-07,0.0,66.15919224,749.57103522,45.53361573,-0.80770895,0.0,0.28635249,0.0,-8.0312573,0.0,933.5720120907936,12.82268963157293,739.6971666476591,-37.137855594844154,122.28733204060694,33.053532565302056,-19.730958138473806,-8.747885251511352,12.443461845557204,872.6656963613557,-304.2177677654856,-431.17378236569016,29.110840652447028,145.7415387247633,-109.67310140298859,-94.10499714839739,-9.216150336489088,-32.748842249344115
10.94,-109.41351151,4.89557661,-36.90585575,33.55442165,7.73864818,-0.47176541,0.0,0.47502256,0.0,3.347e-05,0.0,74.16292741,755.34238798,43.85245972,-0.80354726,0.0,0.28772761,0.0,-8.73492784,0.0,1258.8162106858729,-3.4159082986048848,972.7377703675827,-59.55276392573049,84.62218870784422,22.528312239485373,-20.44482834406968,-10.207512694202315,12.606697233800672,854.956714664646,-361.94319893899313,-328.8818590375145,5.120981432360337,122.87716483516634,-80.99851307313475,-95.0519469496021,-10.94214399393704,-31.547040545661314
10.95,-113.12842414,5.88764686,-43.14519245,42.90759804,10.06168723,-0.46633985,0.0,0.47393372,0.0,0.00019282,0.0,84.78671032,767.85467169,41.96433789,-0.79990096,0.0,0.28893547,0.0,-9.34642981,0.0,1188.6949526335798,66.89102614626111,777.2584221296124,-48.96920954907259,81.20422735884836,15.226303902994225,-20.90333535430083,-10.559918908677497,12.709008715422499,851.8115839333084,-350.74956498673845,-326.0133482379692,9.232387267904134,107.60243956044096,-71.06293141341509,-95.37024933687,-11.506751799924162,-30.73233800682084
10.96,-117.15950864,6.76825736,-47.79519727,52.44197072,12.83390297,-0.46247106,0.0,0.47313841,0.0,0.00106773,0.0,94.6932931,784.66671472,39.27247021,-0.79657665,0.0,0.28996973,0.0,-9.79546556,0.0,1118.5736945812744,137.19796059113958,581.7790738916074,-38.38565517241281,77.7862660098519,7.92429556650178,-21.361842364532063,-10.912325123152742,12.811320197044344,848.6664532019702,-339.5559310344817,-323.14483743842334,13.343793103448661,92.32771428571286,-61.12734975369365,-95.68855172413797,-12.071359605911383,-29.91763546798022
10.97,-121.62861617,5.87285841,-29.16361638,60.23506265,10.82930758,-0.45896103,0.0,0.47243569,0.0,0.00579886,0.0,107.72796293,803.40685087,35.94152042,-0.79329125,0.0,0.29084467,0.0,-10.00705447,0.0,1088.0583359100121,159.58082311546895,476.9330229768613,-32.12738831431903,72.8072494402383,2.792837189465562,-21.598164516472973,-11.057643672033262,12.858602729502078,844.7988319650278,-328.4648619255775,-315.6739279240847,13.549220066104848,82.55958444397017,-54.07843506770407,-95.9126580658919,-12.431521217613833,-29.546068610726095
10.98,-125.21943403,4.15364802,-4.18900659,62.82906243,4.98837112,-0.45611337,0.0,0.4718675,0.0,0.0211147,0.0,115.34154273,820.10047536,31.86733849,-0.7900255,0.0,0.29155342,0.0,-9.82727119,0.0,1093.4920175391837,138.46449941358227,454.35199088388816,-29.795050111952094,66.41131170700463,-0.3684806482569334,-21.63281639833671,-11.014995202047125,12.855937200127945,840.2754286171231,-317.46688772790213,-304.0255645591207,10.209311760315398,77.78961962895802,-49.64965801258103,-96.05126559334686,-12.606113391619585,-29.576722198528632
10.99,-127.72113013,3.64591612,1.40232979,59.03419805,4.0700776,-0.45382752,0.0,0.4716887,0.0,0.08395959,0.0,120.01061401,832.11578181,27.60930023,-0.78664512,0.0,0.29210576,0.0,-9.24398319,0.0,1098.925699168355,117.34817571169559,431.7709587909151,-27.46271190958516,60.01537397377096,-3.5297984859794287,-21.66746828020045,-10.972346732060986,12.853271670753811,835.7520252692183,-306.4689135302267,-292.3772011941567,6.8694034545259495,73.01965481394588,-45.22088095745799,-96.18987312080179,-12.78070556562534,-29.60737578633117
11.0,-127.93454929,3.25503505,1.03345503,51.2302944,3.43391173,-0.44824753,0.0,0.47113859,0.0,0.30733789,0.0,122.6183838,827.99552954,20.33288682,-0.78288793,0.0,0.29248292,0.0,-8.06114657,0.0,1104.3593807975265,96.2318520098089,409.1899266979419,-25.130373707218226,53.61943624053729,-6.691116323701924,-21.702120162064187,-10.929698262074847,12.850606141379677,831.2286219213136,-295.4709393325513,-280.72883782919274,3.5294951487364994,68.24968999893373,-40.79210390233495,-96.32848064825674,-12.955297739631092,-29.638029374133705
11.01,-125.24441714,2.6675257,-1.49624729,43.19749928,1.3545287,-0.43197471,0.0,0.46902839,0.0,0.86569395,0.0,122.67009067,805.15569336,14.93296456,-0.7786238,0.0,0.29273716,0.0,-6.34713165,0.0,1109.7930624266978,75.11552830792222,386.6088946049688,-22.798035504851292,47.223498507303624,-9.85243416142442,-21.736772043927925,-10.887049792088709,12.847940612005544,826.7052185734087,-284.47296513487595,-269.0804744642287,0.18958684294705108,63.47972518392159,-36.36332684721191,-96.4670881757117,-13.129889913636847,-29.66868296193624
11.02,-119.11902139,1.70600687,-5.34881363,37.77542837,-3.57771343,-0.39706419,0.0,0.46484308,0.0,1.63310013,0.0,117.22469558,763.13310461,14.15339434,-0.77375217,0.0,0.29294144,0.0,-4.37535793,0.0,1115.2267440558694,53.99920460603553,364.0278625119957,-20.465697302484358,40.82756077406996,-13.013751999146915,-21.77142392579166,-10.844401322102572,12.84527508263141,822.1818152255039,-273.4749909372006,-257.4321110992647,-3.150321462842399,58.70976036890944,-31.93454979208887,-96.60569570316665,-13.304482087642599,-29.699336549738778
11.03,-109.18916026,-0.19675914,-9.35373969,41.00466022,-13.20416057,-0.3359294,0.0,0.4588429,0.0,2.22865984,0.0,105.21617509,697.35827542,14.30041766,-0.76793362,0.0,0.29313262,0.0,-2.42486328,0.0,1120.6604256850408,32.882880904148834,341.4468304190226,-18.133359100117424,34.43162304083629,-16.17506983686941,-21.806075807655397,-10.801752852116433,12.842609553257278,817.6584118775992,-262.47701673952514,-245.78374773430073,-6.490229768631849,53.9397955538973,-27.50577273696583,-96.74430323062158,-13.479074261648353,-29.729990137541314
11.04,-96.76447053,-3.28153592,-16.74673778,57.80142677,-24.42062925,-0.28382982,0.0,0.45439634,0.0,2.17816178,0.0,89.17395503,616.30069795,14.71802882,-0.76126722,0.0,0.29335759,0.0,-0.83710643,0.0,1172.049859154644,-23.53436619696165,300.4192957747651,-10.872112676087177,16.862535211337658,-21.414366197169812,-21.819295774648015,-10.629859154930383,12.842957746478854,806.9477464789122,-290.70197183074436,-230.26281690143395,-14.10492957743787,36.1228169014899,-9.534788732478841,-97.24971830985686,-13.99901408450488,-29.269014084510086
11.05,-83.43489471,-9.73522869,-28.98771326,96.86759413,-24.95191887,-0.24956619,0.0,0.45447438,0.0,1.99978971,0.0,73.94809075,528.81118067,14.63986665,-0.7541266,0.0,0.29361044,0.0,0.12476582,0.0,1109.1391361875862,37.486041202468485,287.4882257566899,-11.729868714220899,-47.52854968635042,-24.100468241182135,-21.737435642546192,-10.225563363383959,12.859769307236142,867.0410746237892,-376.6233304768114,-233.8146429918063,-2.4104428752633744,-15.415491721795714,37.20621430774902,-98.50774654646416,-15.139361395811168,-27.911126726767918
11.06,-71.11410446,-18.19700941,-38.68805825,144.88293751,-7.60991772,-0.23576816,0.0,0.45548041,0.0,1.77431641,0.0,64.24074553,447.06996037,13.07683157,-0.74762781,0.0,0.29374187,0.0,0.38769696,0.0,927.4540163850338,191.3029266787612,321.29688444794465,-25.10867788708588,-86.96912830356398,-21.553592705584215,-21.703157371542183,-10.12615637747233,12.870052788537345,946.0422058067303,-369.34262571555973,-247.87216193055067,20.789090940250386,-36.71600932368734,52.23380831590687,-98.90537449011067,-15.46500497034926,-27.712312754944662
11.07,-59.48713491,-25.8040477,-42.3771135,189.58686736,-6.99660793,-0.23058046,0.0,0.45562954,0.0,1.45823564,0.0,52.24585319,379.17706888,9.460209,-0.74417147,0.0,0.29368451,0.0,0.21753434,0.0,748.6829299225335,337.57204951738913,360.193557113769,-37.5603657533674,-124.87546595680317,-19.12335627407682,-21.669386659741164,-10.029575379820804,12.880424620179197,1024.6554278665017,-359.4664623642069,-259.85398995802086,42.789857594253654,-57.25814699389716,66.7158845171625,-99.29537852226981,-15.78368004155303,-27.516791758646075
11.08,-47.53595863,-33.24420713,-39.2847361,232.08670526,-6.59084226,-0.22852957,0.0,0.45550364,0.0,1.03626557,0.0,40.08494738,314.55146378,7.54532286,-0.74421618,0.0,0.29261025,0.0,0.2220654,0.0,656.1119795409095,260.5705057063403,549.5989734377667,-22.586841391451962,-117.39736066023276,-20.14342581771473,-21.650630076901994,-10.01659005323984,12.89340994676016,1091.7938947322766,-272.8139352753731,-210.43472261900297,29.329845186052744,-55.36661775527014,65.06097678512192,-99.45985932562868,-15.896219538588046,-27.418680402256573
11.09,-34.72438732,-40.12597701,-41.1533651,275.58857982,-8.74466012,-0.22814973,0.0,0.45521235,0.0,0.47197666,0.0,27.38632258,240.15025116,6.08972995,-0.74434123,0.0,0.29086099,0.0,0.21393393,0.0,563.5410291592855,183.5689618952915,739.0043897617645,-7.613317029536528,-109.91925536366236,-21.163495361352638,-21.631873494062823,-10.003604726658876,12.906395273341124,1158.9323615980513,-186.16140818653932,-161.0154552799851,15.86983277785183,-53.475088516643126,63.40606905308136,-99.62434012898755,-16.00875903562306,-27.320569045867074
11.1,-22.09891087,-49.02430284,-30.8061831,326.94160164,-8.51950193,-0.22873215,0.0,0.45489156,0.0,-0.22280687,0.0,10.68071096,167.5098978,2.55804635,-0.74496249,0.0,0.28793082,0.0,0.17741994,0.0,470.9700787776614,106.56741808424266,928.4098060857622,7.360207332378906,-102.44115006709194,-22.183564904990547,-21.613116911223653,-9.990619400077913,12.919380599922087,1226.070828463826,-99.50888109770551,-111.59618794096721,2.409820369650916,-51.58355927801612,61.7511613210408,-99.78882093234643,-16.12129853265808,-27.222457689477572
